[
  {
    "id": "1",
    "lat": 24.7980959,
    "lng": 120.9940404,
    "name": "商家A",
    "img": "store_A.png",
    "items":
    [
      {
        "id": 1,
        "name": "ouo",
        "description": "ouo",
        "img": "ouo.png",
        "price": 100
      },
      {
        "id": 2,
        "name": "ouo",
        "description": "ouo",
        "img": "ouo.png",
        "price": 199
      }
    ]
  },
  {
    "id": "2",
    "lat": 24.7989759,
    "lng": 120.9960204,
    "name": "商家B",
    "img": "store_B.png",
    "items":
    [
      {
        "id": 1,
        "name": "ouo",
        "description": "ouo",
        "img": "ouo.png",
        "price": 50
      },
      {
        "id": 2,
        "name": "ouo",
        "description": "ouo",
        "img": "ouo.png",
        "price": 49
      }
    ]
  },
  {
    "id": "3",
    "lat": 24.7961217,
    "lng": 120.9966699,
    "name": "商家C",
    "img": "store_C.png",
    "items":
    [
      {
        "id": 1,
        "name": "ouo",
        "description": "ouo",
        "img": "ouo.png",
        "price": 499
      },
      {
        "id": 2,
        "name": "ouo",
        "description": "ouo",
        "img": "ouo.png",
        "price": 100
      }
    ]
  },
  {
    "id": "4",
    "lat": 24.79648913220069,
    "lng": 120.99830757300744,
    "name": "開源社香雞排",
    "img": "store_KWS_jipai.jpg",
    "subtitle": "炸物串與串炸餐廳",
    "items":
    [
      {
        "id": 1,
        "name": "雞排",
        "description": "ouo",
        "img": "ouo.png",
        "price": 199
      },
      {
        "id": 2,
        "name": "豬血糕",
        "description": "ouo",
        "img": "ouo.png",
        "price": 999
      }
    ]
  },
  {
    "id": "5",
    "lat": 24.79900083697299,
    "lng": 120.99796697268016,
    "name": "白鬍子牛排清大店",
    "img": "store_BHZ_steak.jpg",
    "subtitle": "牛排店",
    "items":
    [
      {
        "id": 1,
        "name": "牛排",
        "description": "ouo",
        "img": "ouo.png",
        "price": 899
      },
      {
        "id": 2,
        "name": "白鬍子",
        "description": "ouo",
        "img": "ouo.png",
        "price": 139
      }
    ]
  },
  {
    "id": "6",
    "lat": 24.796931761566174,
    "lng": 120.99839779660648,
    "name": "立晉傳統豆花",
    "img": "store_LZH_douhua.jpg",
    "subtitle": "傳統點心",
    "items":
    [
      {
        "id": 1,
        "name": "鴉片粉圓",
        "description": "ouo",
        "img": "ouo.png",
        "price": 55
      },
      {
        "id": 2,
        "name": "豆花",
        "description": "ouo",
        "img": "ouo.png",
        "price": 20
      }
    ]
  }
]